,City,Temperature,Latitude,Longitude,Cloudiness,Wind_Speed,Humidity
0,rikitea,25.04,-23.1203,-134.9692,15,3.09,76
5,castro,22.44,-24.7911,-50.0119,30,3.31,51
7,cape town,17.65,-33.9258,18.4232,20,4.12,77
10,bambous virieux,25.26,-20.3428,57.7575,75,6.17,78
11,ushuaia,6.0,-54.8,-68.3,90,2.06,93
12,bluff,5.0,-46.6,168.3333,73,3.58,87
13,hobart,7.26,-42.8794,147.3294,1,1.03,93
14,vaini,24.0,-21.2,-175.2,75,2.06,94
15,mount isa,23.0,-20.7333,139.5,84,2.57,40
16,atuona,26.38,-9.8,-139.0333,71,6.11,75
17,hithadhoo,28.5,-0.6,73.0833,29,2.2,63
19,mahebourg,26.0,-20.4081,57.7,75,6.17,78
22,maceio,30.0,-9.6658,-35.7353,20,4.63,62
29,alice springs,9.0,-23.7,133.8833,0,2.06,53
31,busselton,13.89,-33.65,115.3333,100,0.45,91
40,pangai,27.0,-19.8,-174.35,97,6.92,79
44,new norfolk,7.75,-42.7826,147.0587,8,1.25,78
45,punta arenas,7.89,-53.15,-70.9167,90,1.54,93
47,shakawe,23.72,-18.3667,21.85,74,2.31,34
48,port elizabeth,16.0,-33.918,25.5701,75,9.77,88
55,hermanus,15.0,-34.4187,19.2345,8,3.98,85
58,codrington,13.09,-38.2667,141.9667,87,2.58,76
66,bredasdorp,14.0,-34.5322,20.0403,0,2.57,94
70,bambanglipuro,24.41,-7.95,110.2833,14,2.13,86
71,yulara,14.0,-25.2406,130.9889,0,3.6,41
72,sao joao da barra,30.0,-21.6403,-41.0511,40,3.09,62
74,mataura,5.0,-46.1927,168.8643,100,3.58,87
75,arraial do cabo,26.43,-22.9661,-42.0278,20,4.63,78
79,east london,21.0,-33.0153,27.9116,0,3.6,83
81,saint-philippe,22.47,-21.3585,55.7679,90,6.69,73
87,faanui,26.93,-16.4833,-151.75,8,1.9,68
88,lorengau,27.07,-2.0226,147.2712,100,0.85,76
91,tuatapere,5.0,-46.1333,167.6833,96,3.58,87
92,cairns,22.89,-16.9167,145.7667,75,4.63,88
93,rio grande,21.46,-32.035,-52.0986,20,6.17,49
94,souillac,26.0,-20.5167,57.5167,75,6.17,78
96,muana,31.57,-1.5283,-49.2167,65,1.89,55
99,amparo,28.31,-22.7011,-46.7644,40,2.31,47
100,avarua,22.0,-21.2078,-159.775,80,1.54,100
102,oranjemund,16.37,-28.55,16.4333,21,2.67,92
105,kavieng,27.64,-2.5744,150.7967,99,0.49,75
107,elesbao veloso,33.26,-6.2019,-42.1403,44,0.39,44
108,manyana,20.98,-23.4,21.7167,1,3.03,25
114,kruisfontein,16.67,-34.0033,24.7314,100,0.45,88
115,flinders,12.54,-34.5833,150.8552,7,0.45,89
118,moranbah,16.08,-22.0016,148.0466,24,3.8,81
119,chuy,19.2,-33.6971,-53.4616,40,5.05,54
123,mar del plata,16.38,-38.0023,-57.5575,40,4.12,67
124,papara,29.17,-3.9839,-38.7273,20,7.72,66
127,puerto suarez,26.59,-18.95,-57.8,75,2.06,69
131,caravelas,28.64,-17.7125,-39.2481,72,4.32,60
134,quatre cocos,25.17,-20.2078,57.7625,75,6.17,78
135,quelimane,27.0,-17.8786,36.8883,40,2.57,89
136,ondangwa,26.0,-17.9167,15.95,2,1.03,27
137,dunedin,6.11,-45.8742,170.5036,89,6.71,71
142,batemans bay,10.01,-35.7167,150.1833,6,0.45,92
143,somerset west,17.0,-34.084,18.8211,20,4.12,77
145,bengkulu,24.37,-3.8004,102.2655,16,2.04,90
155,le port,21.79,-20.9373,55.2919,75,7.2,83
156,caxito,29.0,-8.5785,13.6643,20,4.63,79
158,sola,27.41,-13.8833,167.55,96,3.68,75
159,lebu,15.58,-37.6167,-73.65,0,5.81,69
160,pozo colorado,26.32,-23.4923,-58.7972,0,3.09,27
161,tautira,25.77,-17.7333,-149.15,40,3.09,78
162,mangochi,22.55,-14.4782,35.2645,90,1.23,81
164,isangel,24.43,-19.55,169.2667,99,3.75,71
165,port alfred,20.71,-33.5906,26.891,99,4.84,83
166,constitucion,19.1,-35.3333,-72.4167,0,5.75,53
167,japura,23.3,-0.3167,102.35,67,0.6,97
168,alofi,22.0,-19.0595,-169.9187,67,0.51,94
177,kaitangata,5.0,-46.2817,169.8464,73,0.89,84
178,saldanha,16.0,-33.0117,17.9442,14,7.72,88
181,moron,20.45,-34.6534,-58.6198,75,1.54,59
182,rio gallegos,19.0,-51.6226,-69.2181,75,11.32,32
184,mariental,25.83,-24.6333,17.9667,54,4.77,22
186,pisco,19.67,-13.7,-76.2167,75,4.63,82
188,rodrigues alves,27.0,-7.738,-72.6509,75,3.09,89
189,porto seguro,28.0,-16.4497,-39.0647,40,7.2,61
190,rundu,21.33,-17.9333,19.7667,17,1.88,28
193,salinopolis,28.8,-0.6136,-47.3561,96,4.46,70
197,buala,26.91,-8.145,159.5921,74,2.51,82
198,kaeo,9.44,-35.1,173.7833,12,2.24,95
200,luderitz,16.84,-26.6481,15.1594,48,3.68,89
201,fougamou,25.24,-1.2154,10.5838,95,1.39,91
202,mitsamiouli,27.49,-11.3847,43.2844,57,3.84,73
204,plettenberg bay,17.92,-34.0527,23.3716,100,3.12,79
211,carnarvon,18.0,-24.8667,113.6333,1,2.57,82
216,kasempa,18.53,-13.4584,25.8338,41,0.8,70
219,te anau,1.83,-45.4167,167.7167,74,0.53,91
228,mpanda,19.2,-6.3655,31.0409,61,0.77,93
234,fare,26.92,-16.7,-151.0167,27,1.54,68
237,richards bay,19.81,-28.783,32.0377,17,1.64,88
243,san vicente,21.96,-26.6167,-54.1333,0,1.96,34
245,padang,25.0,-0.9492,100.3543,20,1.54,94
246,general roca,19.0,-39.0333,-67.5833,0,0.51,59
247,huarmey,22.93,-10.0681,-78.1522,26,5.19,73
250,san carlos de bariloche,17.18,-41.1456,-71.3082,0,3.6,38
256,moerai,25.2,-22.4333,-151.3333,98,4.24,67
259,payo,22.93,-3.7508,103.6372,14,1.16,92
268,alvorada,31.67,-12.48,-49.1247,91,0.71,48
270,rocha,18.3,-34.4833,-54.3333,22,5.88,57
276,port-gentil,30.0,-0.7193,8.7815,75,4.63,74
279,noumea,22.77,-22.2763,166.4572,75,2.06,88
282,gore,5.0,-46.1028,168.9436,98,3.13,87
284,cidreira,21.16,-30.1811,-50.2056,61,6.19,55
285,ancud,12.43,-41.8697,-73.8203,75,5.66,77
287,kisanga,23.07,-7.4362,37.7034,95,0.7,95
293,cabedelo,30.0,-6.9811,-34.8339,40,5.14,66
299,puerto ayora,29.0,-0.7393,-90.3518,20,4.12,65
301,pangoa,19.97,-12.1167,-73.0,100,1.08,98
309,vao,23.18,-22.6667,167.4833,90,10.27,68
317,sao francisco de paula,16.95,-29.4481,-50.5836,81,0.45,73
319,esperance,19.0,-33.8667,121.9,100,4.63,63
324,biak,24.3,-0.9131,122.8766,76,2.23,83
326,humberto de campos,29.29,-2.5983,-43.4611,100,3.78,70
327,saint-joseph,22.5,-21.3667,55.6167,90,6.69,73
329,dubbo,7.0,-32.25,148.6167,0,5.66,76
330,vanimo,25.05,-2.6741,141.3028,81,0.65,84
331,nabire,24.18,-3.3667,135.4833,99,1.22,87
333,gualeguay,19.62,-33.1416,-59.3097,34,1.09,56
338,lodja,25.09,-3.4833,23.4333,92,0.5,74
340,opuwo,22.22,-18.0607,13.84,7,1.32,30
345,ermelo,11.98,-26.5333,29.9833,2,2.39,23
347,mozarlandia,32.65,-14.7447,-50.5706,66,2.59,36
352,namibe,24.97,-15.1961,12.1522,11,3.96,73
355,airai,13.15,-8.9266,125.4092,22,0.55,77
358,touros,31.0,-5.1989,-35.4608,40,7.2,58
365,arinos,32.17,-15.9169,-46.1056,93,1.55,35
368,cururupu,29.55,-1.8283,-44.8683,100,2.98,64
369,vila velha,29.6,-20.3297,-40.2925,20,5.14,62
371,fomboni,28.4,-12.28,43.7425,88,1.38,67
376,borba,27.54,-4.3878,-59.5939,97,1.16,87
378,wewak,25.64,-3.5534,143.6268,22,0.92,84
379,chilca,20.52,-12.5211,-76.7372,90,3.09,88
386,port shepstone,21.0,-30.7414,30.455,76,4.12,81
387,itacoatiara,27.69,-3.1431,-58.4442,99,0.6,84
392,kualakapuas,26.0,-3.0091,114.3876,90,1.03,89
396,boyuibe,22.0,-20.4167,-63.2833,75,2.06,53
406,tual,28.51,-5.6667,132.75,82,3.06,58
410,poum,23.95,-20.2333,164.0167,20,9.23,72
414,walvis bay,18.91,-22.9575,14.5053,0,5.66,68
415,antalaha,23.84,-14.9003,50.2788,37,2.99,90
417,guarapari,29.56,-20.6667,-40.4975,20,5.14,62
419,maracacume,29.91,-2.0428,-45.9592,87,1.65,68
428,broken hill,13.0,-31.95,141.4333,19,2.06,62
431,sidareja,24.02,-7.4846,108.7923,8,0.9,92
439,colquechaca,6.97,-18.6667,-66.0167,0,2.53,16
450,samarai,26.86,-10.6167,150.6667,99,2.59,80
452,samfya,22.35,-11.3649,29.5565,85,1.09,60
461,rawson,21.49,-43.3002,-65.1023,14,2.59,31
464,coihaique,13.0,-45.5752,-72.0662,75,2.06,67
467,antofagasta,19.0,-23.65,-70.4,0,5.14,63
470,innisfail,22.89,-17.5333,146.0333,100,3.56,89
475,victor harbor,11.09,-35.5667,138.6167,0,2.49,97
477,bindura,18.33,-17.3019,31.3306,25,0.89,61
483,mahanoro,22.56,-19.9,48.8,100,2.07,95
491,vilhena,26.0,-12.7406,-60.1458,75,4.63,73
499,mushie,26.72,-3.0167,16.9,81,0.7,74
507,ilo,22.0,-17.6394,-71.3375,0,5.14,68
508,warrnambool,11.67,-38.3833,142.4833,99,2.45,96
511,tucuman,22.0,-26.8241,-65.2226,75,2.06,64
512,chicama,18.0,-7.8447,-79.1469,75,4.63,88
524,masterton,13.93,-40.9597,175.6575,95,4.47,77
528,cap malheureux,24.44,-19.9842,57.6142,100,2.24,85
531,victoria point,16.88,-27.5833,153.3,45,3.89,78
532,seddon,12.27,-37.8068,144.8916,90,3.6,100
543,taltal,19.3,-25.4,-70.4833,16,1.83,68
546,vangaindrano,22.09,-23.35,47.6,36,1.57,91
